% program   : RTKLIB ver.2.4.3
% inp file  : C:\RTKLIB\aNewFolder\aNewFolder\2.4.3\2025\168\lj010617k.25o
% inp file  : C:\RTKLIB\aNewFolder\aNewFolder\2.4.3\2025\168\CS01168K.25o
% inp file  : C:\RTKLIB\aNewFolder\aNewFolder\2.4.3\2025\168\lj020617j.25n
% inp file  : C:\RTKLIB\aNewFolder\goodGamp\clk\wum23712.clk
% inp file  : C:\RTKLIB\aNewFolder\goodGamp\orb\wum23712.sp3
% inp file  : C:\RTKLIB\aNewFolder\goodGamp\ion\2025\168\COD0OPSFIN_20251680000_01D_01H_GIM.INX
% obs start : 2025/06/17 10:31:28.0 GPST (week2371 210688.0s)
% obs end   : 2025/06/17 10:32:43.0 GPST (week2371 210763.0s)
% pos mode  : Kinematic
% freqs     : L1+2+3+4+5
% solution  : Forward
% elev mask : 15.0 deg
% dynamics  : on
% tidecorr  : off
% ionos opt : IONEX TEC
% tropo opt : Saastamoinen
% ephemeris : Broadcast
% navi sys  : GPS Galileo BDS
% amb res   : Instantaneous
% val thres : 3.0
% antenna1  :                       ( 0.0000  0.0000  0.0000)
% antenna2  :                       ( 0.0000  0.0000  0.0000)
% ref pos   : 30.472249615 114.424257452   21.9710
%
% (lat/lon/height=WGS84/ellipsoidal,Q=1:fix,2:float,3:sbas,4:dgps,5:single,6:ppp,ns=# of satellites)
%  GPST                  latitude(deg) longitude(deg)  height(m)   Q  ns   sdn(m)   sde(m)   sdu(m)  sdne(m)  sdeu(m)  sdun(m) age(s)  ratio
2025/06/17 10:31:28.000   30.472513989  114.424950009    44.5362   1  24   0.0026   0.0024   0.0062  -0.0009  -0.0018  -0.0008   0.00    4.0
2025/06/17 10:31:29.000   30.472670327  114.425893686   -48.1658   2  12   1.8603   5.8930   5.9464   2.9389  -5.3924  -2.0541   0.00    1.0
2025/06/17 10:31:30.000   30.472513555  114.425025924    38.6086   2  24   0.4615   2.8075   4.2222   0.3722  -3.4039  -0.3323   0.00    0.0
2025/06/17 10:31:31.000   30.472507713  114.424893066    52.6030   2  24   0.5726   3.0681   4.4599   0.7575  -3.6564  -0.7922   0.00    0.0
2025/06/17 10:31:32.000   30.472515192  114.424936233    47.1247   2  24   0.3266   0.7192   1.5167  -0.3125  -0.9857   0.4243   0.00    1.0
2025/06/17 10:31:33.000   30.472514004  114.424950017    44.5505   1  24   0.0026   0.0024   0.0062  -0.0009  -0.0018  -0.0008   0.00    3.8
2025/06/17 10:31:34.000   30.472513531  114.424948404    44.9527   2  24   0.2605   0.2361   0.6112  -0.0878  -0.1769  -0.0805   0.00    2.9
2025/06/17 10:31:35.000   30.472514034  114.424950009    44.5787   1  24   0.0026   0.0024   0.0062  -0.0009  -0.0018  -0.0008   0.00    4.5
2025/06/17 10:31:36.000   30.472513954  114.424949987    44.4982   1  24   0.0026   0.0024   0.0062  -0.0009  -0.0018  -0.0008   0.00    3.0
2025/06/17 10:31:37.000   30.472514046  114.424950021    44.5870   1  24   0.0026   0.0024   0.0062  -0.0009  -0.0018  -0.0008   0.00    3.8
2025/06/17 10:31:38.000   30.472513947  114.424949966    44.4835   1  24   0.0026   0.0024   0.0062  -0.0009  -0.0018  -0.0008   0.00    3.5
2025/06/17 10:31:39.000   30.472514036  114.424950005    44.6017   1  24   0.0026   0.0024   0.0062  -0.0009  -0.0018  -0.0008   0.00    3.8
2025/06/17 10:31:40.000   30.472513957  114.424949948    44.4846   1  24   0.0026   0.0024   0.0062  -0.0009  -0.0018  -0.0008   0.00    3.3
2025/06/17 10:31:41.000   30.472514033  114.424950035    44.5886   1  24   0.0026   0.0024   0.0062  -0.0009  -0.0018  -0.0008   0.00    3.5
2025/06/17 10:31:42.000   30.472513959  114.424949966    44.4875   1  24   0.0026   0.0024   0.0062  -0.0009  -0.0018  -0.0008   0.00    3.3
2025/06/17 10:31:43.000   30.472514006  114.424950020    44.5898   1  24   0.0026   0.0024   0.0062  -0.0009  -0.0018  -0.0008   0.00    3.7
2025/06/17 10:31:44.000   30.472513961  114.424949987    44.5012   1  24   0.0026   0.0024   0.0062  -0.0009  -0.0018  -0.0008   0.00    3.6
2025/06/17 10:31:45.000   30.472513994  114.424950029    44.5713   1  24   0.0026   0.0024   0.0062  -0.0009  -0.0018  -0.0008   0.00    4.0
2025/06/17 10:31:46.000   30.472513965  114.424949998    44.5195   1  24   0.0026   0.0024   0.0062  -0.0009  -0.0018  -0.0008   0.00    3.2
2025/06/17 10:31:47.000   30.472513969  114.424950031    44.5535   1  24   0.0026   0.0024   0.0062  -0.0009  -0.0018  -0.0008   0.00    3.6
2025/06/17 10:31:48.000   30.472513978  114.424950011    44.5368   1  24   0.0026   0.0024   0.0062  -0.0009  -0.0018  -0.0008   0.00    3.5
2025/06/17 10:31:49.000   30.472513962  114.424950031    44.5394   1  24   0.0026   0.0024   0.0062  -0.0009  -0.0018  -0.0008   0.00    3.3
2025/06/17 10:31:50.000   30.472513984  114.424950029    44.5506   1  24   0.0026   0.0024   0.0062  -0.0009  -0.0018  -0.0008   0.00    3.2
2025/06/17 10:31:51.000   30.472513945  114.424950020    44.5229   1  24   0.0026   0.0024   0.0062  -0.0009  -0.0018  -0.0008   0.00    3.0
2025/06/17 10:31:52.000   30.472514008  114.424950041    44.5688   1  24   0.0026   0.0024   0.0062  -0.0009  -0.0018  -0.0008   0.00    3.4
2025/06/17 10:31:53.000   30.472513947  114.424950014    44.5096   1  24   0.0026   0.0024   0.0062  -0.0009  -0.0018  -0.0008   0.00    3.0
2025/06/17 10:31:54.000   30.472514028  114.424950053    44.5788   1  24   0.0026   0.0024   0.0062  -0.0009  -0.0018  -0.0008   0.00    3.3
2025/06/17 10:31:55.000   30.472512840  114.424948582    44.8744   2  24   0.2605   0.2359   0.6102  -0.0877  -0.1757  -0.0817   0.00    2.8
2025/06/17 10:31:56.000   30.472514019  114.424950047    44.5931   1  24   0.0026   0.0024   0.0062  -0.0009  -0.0018  -0.0008   0.00    3.2
2025/06/17 10:31:57.000   30.472513979  114.424949981    44.4826   1  24   0.0026   0.0024   0.0062  -0.0009  -0.0018  -0.0008   0.00    3.3
2025/06/17 10:31:58.000   30.472514044  114.424950043    44.5973   1  24   0.0026   0.0024   0.0062  -0.0009  -0.0018  -0.0008   0.00    3.0
2025/06/17 10:31:59.000   30.472513963  114.424949982    44.4878   1  24   0.0026   0.0024   0.0062  -0.0009  -0.0018  -0.0008   0.00    3.2
2025/06/17 10:32:00.000   30.472514012  114.424950039    44.5881   1  24   0.0026   0.0024   0.0062  -0.0009  -0.0018  -0.0008   0.00    3.0
2025/06/17 10:32:01.000   30.472513970  114.424949987    44.4980   1  24   0.0026   0.0024   0.0062  -0.0009  -0.0018  -0.0008   0.00    3.1
2025/06/17 10:32:02.000   30.472514020  114.424950047    44.5794   1  24   0.0026   0.0024   0.0062  -0.0009  -0.0018  -0.0008   0.00    3.2
2025/06/17 10:32:03.000   30.472516184  114.424946800    45.1577   2  24   0.2606   0.2358   0.6102  -0.0877  -0.1754  -0.0821   0.00    3.0
2025/06/17 10:32:04.000   30.472513985  114.424950062    44.5596   1  24   0.0026   0.0024   0.0062  -0.0009  -0.0018  -0.0008   0.00    3.1
2025/06/17 10:32:05.000   30.472513986  114.424950014    44.5271   1  23   0.0026   0.0025   0.0065  -0.0010  -0.0022  -0.0003   0.00    3.0
2025/06/17 10:32:06.000   30.472518024  114.424946908    45.4917   2  23   0.2621   0.2516   0.6437  -0.1005  -0.2208  -0.0336   0.00    3.0
2025/06/17 10:32:07.000   30.472514010  114.424950033    44.5424   1  24   0.0026   0.0025   0.0063  -0.0009  -0.0020  -0.0007   0.00    3.4
2025/06/17 10:32:08.000   30.472518658  114.424946927    45.3131   2  24   0.2609   0.2431   0.6257  -0.0922  -0.1973  -0.0699   0.00    2.9
2025/06/17 10:32:09.000   30.472514015  114.424950037    44.5594   1  24   0.0026   0.0025   0.0063  -0.0009  -0.0020  -0.0007   0.00    3.6
2025/06/17 10:32:10.000   30.472513963  114.424950020    44.5184   1  24   0.0026   0.0024   0.0062  -0.0009  -0.0018  -0.0008   0.00    3.0
2025/06/17 10:32:11.000   30.472514047  114.424950033    44.5708   1  24   0.0026   0.0024   0.0062  -0.0009  -0.0018  -0.0008   0.00    3.2
2025/06/17 10:32:12.000   30.472518403  114.424946783    45.6117   2  24   0.2606   0.2357   0.6101  -0.0877  -0.1751  -0.0825   0.00    2.8
2025/06/17 10:32:13.000   30.472514058  114.424950020    44.5874   1  24   0.0026   0.0024   0.0062  -0.0009  -0.0018  -0.0008   0.00    3.4
2025/06/17 10:32:14.000   30.472517039  114.424946123    45.7974   2  24   0.2606   0.2357   0.6100  -0.0877  -0.1751  -0.0826   0.00    2.8
2025/06/17 10:32:15.000   30.472514041  114.424950025    44.5995   1  24   0.0026   0.0024   0.0062  -0.0009  -0.0018  -0.0008   0.00    3.6
2025/06/17 10:32:16.000   30.472513982  114.424949969    44.4865   1  24   0.0026   0.0024   0.0062  -0.0009  -0.0018  -0.0008   0.00    3.4
2025/06/17 10:32:17.000   30.472514033  114.424950054    44.5899   1  24   0.0026   0.0024   0.0062  -0.0009  -0.0018  -0.0008   0.00    3.6
2025/06/17 10:32:18.000   30.472513983  114.424949989    44.4989   1  24   0.0026   0.0024   0.0062  -0.0009  -0.0018  -0.0008   0.00    3.4
2025/06/17 10:32:19.000   30.472514016  114.424950036    44.5829   1  24   0.0026   0.0024   0.0062  -0.0009  -0.0018  -0.0008   0.00    3.8
2025/06/17 10:32:20.000   30.472513977  114.424950005    44.5061   1  24   0.0026   0.0024   0.0062  -0.0009  -0.0018  -0.0008   0.00    3.1
2025/06/17 10:32:21.000   30.472514007  114.424950052    44.5662   1  24   0.0026   0.0024   0.0062  -0.0009  -0.0018  -0.0008   0.00    3.6
2025/06/17 10:32:22.000   30.472513978  114.424950009    44.5241   1  24   0.0026   0.0024   0.0062  -0.0009  -0.0018  -0.0008   0.00    3.2
2025/06/17 10:32:23.000   30.472513963  114.424950039    44.5526   1  24   0.0026   0.0024   0.0062  -0.0009  -0.0018  -0.0008   0.00    3.4
2025/06/17 10:32:24.000   30.472513975  114.424950030    44.5446   1  24   0.0026   0.0024   0.0062  -0.0009  -0.0018  -0.0008   0.00    3.9
2025/06/17 10:32:25.000   30.472513739  114.424948035    44.9226   2  24   0.2606   0.2356   0.6099  -0.0876  -0.1747  -0.0832   0.00    2.9
2025/06/17 10:32:26.000   30.472513999  114.424950034    44.5545   1  24   0.0026   0.0024   0.0062  -0.0009  -0.0018  -0.0008   0.00    3.7
2025/06/17 10:32:27.000   30.472513041  114.424947400    45.0330   2  24   0.2607   0.2356   0.6099  -0.0876  -0.1746  -0.0833   0.00    2.7
2025/06/17 10:32:28.000   30.472514032  114.424950014    44.5695   1  24   0.0026   0.0024   0.0062  -0.0009  -0.0018  -0.0008   0.00    3.7
2025/06/17 10:32:29.000   30.472512965  114.424947885    44.9463   2  24   0.2607   0.2356   0.6099  -0.0876  -0.1746  -0.0834   0.00    2.8
2025/06/17 10:32:30.000   30.472514035  114.424950006    44.5866   1  24   0.0026   0.0024   0.0062  -0.0009  -0.0018  -0.0008   0.00    4.1
2025/06/17 10:32:31.000   30.472513684  114.424947997    44.9026   2  24   0.2607   0.2356   0.6099  -0.0876  -0.1745  -0.0835   0.00    2.9
2025/06/17 10:32:32.000   30.472514041  114.424950002    44.5996   1  24   0.0026   0.0024   0.0062  -0.0009  -0.0018  -0.0008   0.00    3.2
2025/06/17 10:32:33.000   30.472513946  114.424949973    44.4904   1  24   0.0026   0.0024   0.0062  -0.0009  -0.0018  -0.0008   0.00    3.2
2025/06/17 10:32:34.000   30.472514030  114.424950036    44.5921   1  24   0.0026   0.0024   0.0062  -0.0009  -0.0018  -0.0008   0.00    3.6
2025/06/17 10:32:35.000   30.472513978  114.424949955    44.4949   1  24   0.0026   0.0024   0.0062  -0.0009  -0.0018  -0.0008   0.00    3.4
2025/06/17 10:32:36.000   30.472514016  114.424950037    44.5841   1  24   0.0026   0.0024   0.0062  -0.0009  -0.0018  -0.0008   0.00    3.3
2025/06/17 10:32:37.000   30.472513970  114.424949974    44.5001   1  24   0.0026   0.0024   0.0062  -0.0009  -0.0018  -0.0008   0.00    3.2
2025/06/17 10:32:38.000   30.472514009  114.424950040    44.5732   1  24   0.0026   0.0024   0.0062  -0.0009  -0.0018  -0.0008   0.00    3.5
2025/06/17 10:32:39.000   30.472513966  114.424949992    44.5217   1  24   0.0026   0.0024   0.0062  -0.0009  -0.0018  -0.0008   0.00    3.3
2025/06/17 10:32:40.000   30.472515148  114.424947840    45.0699   2  24   0.2607   0.2355   0.6098  -0.0876  -0.1742  -0.0839   0.00    3.0
2025/06/17 10:32:41.000   30.472513978  114.424950014    44.5376   1  24   0.0026   0.0024   0.0062  -0.0009  -0.0018  -0.0008   0.00    3.1
2025/06/17 10:32:42.000   30.472513949  114.424950031    44.5400   1  24   0.0026   0.0024   0.0062  -0.0009  -0.0018  -0.0008   0.00    3.3
2025/06/17 10:32:43.000   30.472513997  114.424950042    44.5494   1  24   0.0026   0.0024   0.0062  -0.0009  -0.0018  -0.0008   0.00    3.6
